City_ID,City,Lat,Lng,Max Temp,Humidity,Cloudiness,Wind Speed,Country,Date
0,nadi,-17.8,177.4167,301.15,69,40,4.63,FJ,1686619172
1,lionel town,17.8101,-77.2406,302.09,82,6,4.25,JM,1686619172
2,taoudenni,22.6783,-3.9836,307.6,10,51,3.77,ML,1686619172
3,sikasso,10.9167,-7.0,297.93,80,13,1.97,ML,1686619172
4,treinta y tres,-33.2333,-54.3833,277.64,81,7,2.69,UY,1686619172
5,hermanus,-34.4187,19.2345,288.6,85,100,12.7,ZA,1686618760
6,bethel,41.3712,-73.414,293.62,88,100,3.6,US,1686618753
7,adamstown,-25.066,-130.1015,293.44,64,27,3.44,PN,1686618745
8,guiyang,26.5833,106.7167,292.42,88,100,2.0,CN,1686619173
9,tura,25.5198,90.2201,298.44,91,12,2.29,IN,1686618851
10,kittila,67.6647,24.8936,286.23,54,0,4.12,FI,1686619174
11,margaret river,-33.95,115.0667,288.57,71,100,6.83,AU,1686618767
12,bardai,11.65,7.2333,295.51,86,45,4.09,NG,1686618799
13,sitka,57.0531,-135.33,285.09,62,100,7.2,US,1686618678
14,edinburgh of the seven seas,-37.0676,-12.3116,288.45,90,100,10.01,SH,1686618780
15,waitangi,-43.9535,-176.5597,285.27,91,89,0.89,NZ,1686618525
16,fort william,56.8165,-5.1121,287.76,91,57,1.84,GB,1686619096
17,si sa ket,14.8333,104.3333,298.99,83,100,3.31,TH,1686619175
18,blackmans bay,-43.0167,147.3167,284.12,84,100,3.51,AU,1686618755
19,nemuro,43.3236,145.575,285.35,97,100,4.75,JP,1686618755
20,wladyslawowo,54.7909,18.4009,287.56,75,100,4.05,PL,1686619175
21,labytnangi,66.6572,66.4183,279.26,52,98,3.56,RU,1686619176
22,torremaggiore,41.6907,15.2963,291.48,86,1,1.54,IT,1686619176
23,urangan,-25.3,152.9,293.06,73,0,1.73,AU,1686619176
24,ust-nera,64.5667,143.2,281.56,94,100,5.21,RU,1686618758
25,albany,42.6001,-73.9662,296.51,64,100,1.34,US,1686618625
26,port-aux-francais,-49.35,70.2167,279.53,89,100,13.96,TF,1686618752
27,luuq,3.7938,42.5445,296.86,67,16,8.64,SO,1686619177
28,bilibino,68.0546,166.4372,284.04,91,100,5.61,RU,1686618752
29,puerto ayacucho,5.6639,-67.6236,298.29,89,90,1.3,VE,1686619177
30,nova sintra,14.8667,-24.7167,294.54,84,100,7.82,CV,1686618868
31,vila franca do campo,37.7167,-25.4333,292.38,98,100,5.53,PT,1686618774
32,avarua,-21.2078,-159.775,299.18,83,100,5.66,CK,1686618815
33,taguatinga,-12.3857,-46.5711,297.51,43,0,1.98,BR,1686619179
34,grytviken,-54.2811,-36.5092,271.21,88,87,4.63,GS,1686618746
35,mumford,5.2618,-0.759,298.28,73,16,4.3,GH,1686618831
36,antofagasta,-23.65,-70.4,288.75,81,47,2.9,CL,1686618963
37,puerto natales,-51.7236,-72.4875,274.67,95,100,2.06,CL,1686618748
38,flying fish cove,-10.4217,105.6791,298.97,88,100,5.14,CX,1686618835
39,atafu village,-8.5421,-172.5159,301.9,75,82,6.46,TK,1686618751
40,whitehorse,60.7161,-135.0538,290.58,23,40,5.66,CA,1686618762
41,hadibu,12.65,54.0333,301.24,79,100,9.76,YE,1686618791
42,vadso,70.0744,29.7487,282.24,61,100,5.14,NO,1686618764
43,papatowai,-46.5619,169.4708,284.38,81,32,2.86,NZ,1686618760
44,zouerate,22.7187,-12.4521,301.52,27,0,6.55,MR,1686619181
45,mount pearl,47.5166,-52.7813,280.29,94,100,9.26,CA,1686619181
46,ushuaia,-54.8,-68.3,277.96,75,40,12.86,AR,1686618680
47,ilulissat,69.2167,-51.1,275.16,75,75,3.09,GL,1686618750
48,muynoq,43.7683,59.0214,295.82,46,6,4.85,UZ,1686619182
49,pisco,-13.7,-76.2167,293.18,73,5,4.12,PE,1686618770
50,yarmouth,41.7057,-70.2286,293.23,88,100,5.14,US,1686619182
51,wailua homesteads,22.0669,-159.378,301.39,78,40,6.17,US,1686618816
52,iqaluit,63.7506,-68.5145,274.65,64,75,5.36,CA,1686618756
53,kapuskasing,49.4169,-82.4331,292.15,72,100,1.54,CA,1686619022
54,mount isa,-20.7333,139.5,300.02,26,8,3.6,AU,1686619183
55,west island,-12.1568,96.8225,300.14,83,100,9.23,CC,1686618806
56,yelizovo,53.1873,158.3805,296.23,37,0,3.0,RU,1686619183
57,nogliki,51.8333,143.1667,279.2,96,100,2.36,RU,1686619183
58,kapenguria,1.2511,35.0895,285.37,87,18,2.56,KE,1686619184
59,micheweni,-4.9667,39.8333,297.86,77,0,4.75,TZ,1686619184
60,kijang,35.2442,129.2139,298.0,81,100,1.98,KR,1686619184
61,cabo san lucas,22.8909,-109.9124,305.71,45,0,2.57,MX,1686618806
62,polyarnyy,69.1989,33.4478,282.32,72,99,4.57,RU,1686618849
63,la'ie,21.6477,-157.9253,304.13,69,0,2.68,US,1686618756
64,karratha,-20.7377,116.8463,293.8,34,20,9.51,AU,1686619185
65,peterhead,57.5058,-1.7981,287.84,96,99,3.63,GB,1686619185
66,mili,6.0815,171.735,301.48,80,100,7.83,MH,1686619186
67,talnakh,69.4865,88.3972,280.49,87,99,1.99,RU,1686618749
68,katsuren-haebaru,26.3369,127.8719,301.58,97,100,3.6,JP,1686619186
69,tazovsky,67.4667,78.7,273.85,94,100,8.13,RU,1686618756
70,saint-denis,48.9167,2.3333,292.67,89,0,4.63,FR,1686619186
71,dunedin,-45.8742,170.5036,287.48,62,100,2.68,NZ,1686618790
72,hotan,37.0997,79.9269,301.28,19,98,3.44,CN,1686618763
73,cruzeiro do sul,-29.5128,-51.9853,280.65,91,55,0.81,BR,1686619187
74,zaozersk,69.4005,32.4476,283.24,65,100,5.78,RU,1686619187
75,lihue,21.9789,-159.3672,301.73,73,40,6.17,US,1686618749
76,nar'yan-mar,67.6713,53.087,280.83,78,45,4.14,RU,1686618765
77,prince rupert,54.3161,-130.3201,285.37,88,99,2.58,CA,1686618609
78,san luis de la loma,17.2706,-100.8939,302.42,70,5,3.71,MX,1686619188
79,ola,59.5833,151.2833,292.12,91,90,5.23,RU,1686618768
80,kapa'a,22.0752,-159.319,302.14,78,40,6.17,US,1686618752
81,puerto ayora,-0.7393,-90.3518,299.57,91,73,4.47,EC,1686618758
82,vorkuta,67.5,64.0,279.08,61,100,4.53,RU,1686619189
83,tolanaro,-25.0319,46.9987,291.41,92,6,2.46,MG,1686618795
84,tannum sands,-23.9504,151.3693,299.12,57,0,2.06,AU,1686619190
85,bredasdorp,-34.5322,20.0403,286.74,72,56,11.94,ZA,1686618760
86,kodiak,57.79,-152.4072,284.88,54,0,7.2,US,1686618758
87,westport,41.1415,-73.3579,293.4,92,100,4.12,US,1686619070
88,bikenibeu village,1.3673,173.1241,303.13,79,40,2.57,KI,1686618813
89,kavaratti,10.5669,72.642,302.61,75,100,9.96,IN,1686618794
90,skoghall,59.3232,13.4655,282.46,81,98,1.03,SE,1686619191
91,lompoc,34.6391,-120.4579,295.38,75,30,3.13,US,1686618458
92,san patricio,28.017,-97.5169,302.69,77,95,6.56,US,1686618795
93,sona,45.4388,10.8255,293.9,77,75,3.09,IT,1686619192
94,tanumah,27.1,44.1333,303.89,18,1,6.18,SA,1686619192
95,simpang,-1.2667,104.0833,300.0,83,56,2.22,ID,1686619192
96,khovd,48.0056,91.6419,288.08,40,1,3.0,MN,1686619193
97,nuku'alofa,-21.1333,-175.2,295.34,88,75,1.03,TO,1686618774
98,aasiaat,68.7098,-52.8699,273.18,83,41,6.09,GL,1686618749
99,shache,38.4167,77.2406,299.17,18,100,2.63,CN,1686619193
100,longyearbyen,78.2186,15.6401,275.06,87,75,4.63,SJ,1686618815
101,pacific grove,36.6177,-121.9166,291.29,81,20,4.63,US,1686618869
102,loreto,22.2667,-101.9667,303.19,15,83,8.55,MX,1686619195
103,minas de marcona,-15.2119,-75.1103,285.46,85,85,8.58,PE,1686618874
104,smithers,54.7804,-127.1743,296.33,33,40,6.69,CA,1686619144
105,haiku-pauwela,20.9219,-156.3051,303.16,48,40,9.26,US,1686618773
106,malvan,16.0667,73.4667,301.08,80,13,7.1,IN,1686619196
107,boali,4.8005,18.1275,295.6,89,92,1.03,CF,1686619196
108,sao joao da barra,-21.6403,-41.0511,296.19,87,98,2.48,BR,1686618819
109,port lincoln,-34.7333,135.8667,287.08,59,97,10.3,AU,1686618802
110,abu jibeha,11.4562,31.2285,300.36,62,89,2.27,SD,1686619196
111,xilin hot,43.9667,116.0333,294.29,40,0,2.46,CN,1686618797
112,mokhsogollokh,61.4681,128.9203,278.63,77,100,1.52,RU,1686619197
113,kuanda,56.3161,116.0806,286.35,57,38,2.35,RU,1686619197
114,constantia,44.1833,28.65,285.76,82,39,7.06,RO,1686618750
115,alice springs,-23.7,133.8833,289.38,38,0,5.14,AU,1686618771
116,bay roberts,47.5999,-53.2648,280.96,93,100,4.02,CA,1686619198
117,tafuna,-14.3358,-170.72,299.12,100,100,3.6,AS,1686619198
118,yellowknife,62.456,-114.3525,281.44,66,75,2.57,CA,1686618758
119,carnarvon,-24.8667,113.6333,288.8,41,0,7.53,AU,1686618870
120,neiafu,-18.65,-173.9833,298.53,83,75,2.57,TO,1686619198
121,pingliang,35.5392,106.6861,296.27,29,70,3.53,CN,1686619199
122,brookings,44.3114,-96.7984,295.99,43,0,3.6,US,1686619199
123,saipan,15.1355,145.701,304.54,100,20,6.17,MP,1686619199
124,flin flon,54.7682,-101.865,299.01,24,0,4.77,CA,1686618922
125,nouadhibou,20.931,-17.0347,295.14,83,0,8.75,MR,1686618800
126,port isabel,26.0734,-97.2086,303.2,82,0,7.72,US,1686619201
127,port elizabeth,-33.918,25.5701,287.31,64,0,4.63,ZA,1686618761
128,laojunmiao,39.8333,97.7333,296.22,19,0,5.51,CN,1686619201
129,georgetown,5.4112,100.3354,303.12,70,20,3.6,MY,1686618640
130,newman,37.3138,-121.0208,302.34,50,52,2.24,US,1686618810
131,ribeira brava,32.65,-17.0667,292.99,83,97,0.29,PT,1686618798
132,egilsstadir,65.2653,-14.3948,281.1,76,0,1.03,IS,1686618817
133,stanley,54.868,-1.6985,285.77,88,40,0.55,GB,1686618753
134,loiza,18.4313,-65.8802,301.52,86,75,2.57,PR,1686619203
135,rudbar,30.15,62.6,301.41,19,2,3.88,AF,1686619204
136,faro,37.0194,-7.9322,292.03,82,0,4.12,PT,1686619204
137,badger,64.8,-147.5333,290.66,42,75,1.54,US,1686618771
138,geraldton,-28.7667,114.6,284.38,76,0,4.12,AU,1686618710
139,port blair,11.6667,92.75,301.27,84,100,8.11,IN,1686618820
140,katsuura,35.1333,140.3,297.16,88,91,5.77,JP,1686619168
141,steinkjer,64.193,11.3851,283.67,86,94,1.56,NO,1686619206
142,kloulklubed,7.0419,134.2556,297.43,80,100,4.67,PW,1686619206
143,olonkinbyen,70.9221,-8.7187,275.32,87,100,8.52,SJ,1686618759
144,invercargill,-46.4,168.35,284.17,88,92,2.14,NZ,1686618761
145,khandyga,62.6667,135.6,285.52,59,100,1.62,RU,1686618840
146,male,4.1748,73.5089,301.95,76,100,7.39,MV,1686618760
147,tarko-sale,64.9225,77.785,277.98,54,15,9.94,RU,1686619207
148,zierenberg,51.3695,9.3016,286.42,66,0,0.51,DE,1686619207
149,gadzhiyevo,69.2551,33.3362,282.23,71,100,3.86,RU,1686618794
150,kontagora,10.3999,5.4695,296.72,82,74,0.93,NG,1686619208
151,bichena,10.45,38.2,287.87,67,100,1.85,ET,1686619208
152,punta arenas,-53.15,-70.9167,279.21,70,20,8.75,CL,1686618656
153,russellville,35.2784,-93.1338,296.37,70,75,2.06,US,1686619208
154,kirando,-7.4167,30.6,297.63,56,96,2.69,TZ,1686619209
155,kurkino,53.4257,38.6582,283.13,71,100,6.65,RU,1686619209
156,port moresby,-9.4431,147.1797,302.83,70,40,2.57,PG,1686619094
157,lata,40.1629,-8.3327,291.52,98,100,1.62,PT,1686619209
158,monteiro,-7.8894,-37.12,292.56,93,0,2.91,BR,1686619210
159,gamba,-2.65,10.0,296.22,93,99,1.83,GA,1686619210
160,college,64.8569,-147.8028,291.33,36,75,4.12,US,1686618815
161,hualien city,23.9769,121.6044,300.74,87,100,2.97,TW,1686619211
162,burgas,42.5061,27.4678,291.21,77,40,1.54,BG,1686619211
163,bo rai,12.5728,102.5371,300.63,86,100,3.22,TH,1686619211
164,ta`u,-14.2336,-169.5144,300.94,71,54,7.64,AS,1686618768
165,debesy,57.6529,53.8049,279.55,71,2,1.38,RU,1686619212
166,inirida,3.8653,-67.9239,297.19,92,49,0.97,CO,1686618864
167,udachny,66.4167,112.4,288.4,38,20,7.06,RU,1686618765
168,saudarkrokur,65.7461,-19.6394,282.69,79,12,2.6,IS,1686618817
169,ramadi,33.4226,43.3058,304.94,21,49,5.14,IQ,1686619213
170,hami,42.8,93.45,303.7,17,31,6.4,CN,1686618837
171,lebu,-37.6167,-73.65,281.48,75,0,7.44,CL,1686618500
172,port hueneme,34.1478,-119.1951,294.44,75,75,5.14,US,1686619213
173,remire-montjoly,4.9167,-52.2667,298.17,100,0,1.03,GF,1686618802
174,ribeira grande,38.5167,-28.7,291.91,97,7,1.79,PT,1686618751
175,gewane,10.1664,40.6453,302.79,45,100,0.54,ET,1686619214
176,susuman,62.7833,148.1667,290.1,65,100,2.4,RU,1686619216
177,kolonia town,6.964,158.206,305.15,66,100,5.14,FM,1686619216
178,tofol,5.3248,163.0078,302.03,79,100,3.6,FM,1686619216
179,thompson,55.7435,-97.8558,296.09,40,98,2.73,CA,1686618819
180,san giorgio delle pertiche,45.541,11.894,291.96,88,100,4.17,IT,1686619217
181,biltine,14.5333,20.9167,301.69,54,63,5.17,TD,1686619217
182,cidreira,-30.1811,-50.2056,282.57,66,68,4.01,BR,1686619217
183,santa ana,33.7456,-117.8678,294.49,73,75,4.63,US,1686618991
184,kokshetau,53.2775,69.3883,285.82,56,100,5.2,KZ,1686619218
185,keflavik,64.0049,-22.5624,282.1,87,20,1.03,IS,1686618763
186,suva,-18.1416,178.4415,296.86,94,75,0.0,FJ,1686618770
187,kodyma,48.0988,29.1246,284.32,87,100,4.35,UA,1686619218
188,klaksvik,62.2266,-6.589,279.66,72,100,0.55,FO,1686618765
189,hithadhoo,-0.6,73.0833,301.82,71,18,4.39,MV,1686618818
190,valdivia,-39.8142,-73.2459,276.48,98,5,1.71,CL,1686619023
191,chicoana,-25.1009,-65.5331,279.29,55,95,1.09,AR,1686619219
192,revda,56.801,59.9303,277.84,69,0,1.03,RU,1686618805
193,codrington,-38.2667,141.9667,284.97,82,100,7.13,AU,1686618766
194,sinop,41.7711,34.8709,287.91,92,85,0.79,TR,1686619220
195,smyrna,33.884,-84.5144,295.96,72,75,4.12,US,1686618956
196,arroyo de la luz,39.4851,-6.584,290.35,79,11,2.64,ES,1686619220
197,gemena,3.25,19.7667,293.87,98,100,0.81,CD,1686619220
198,tralee,52.2704,-9.7026,288.04,95,75,0.95,IE,1686618783
199,sokoni,-6.4333,39.55,299.16,69,0,5.93,TZ,1686619221
200,ust'-ilimsk,58.0006,102.6619,286.13,47,100,2.5,RU,1686619221
201,road town,18.4167,-64.6167,302.2,78,15,10.12,VG,1686619221
202,enewetak,11.3474,162.3373,300.92,82,96,8.72,MH,1686618759
203,port mathurin,-19.6833,63.4167,297.84,69,0,6.47,MU,1686618808
204,kristiansund,63.1115,7.732,287.18,71,100,3.09,NO,1686618800
205,kruisfontein,-34.0033,24.7314,284.2,64,100,5.8,ZA,1686618833
206,paita,-5.0892,-81.1144,296.9,76,0,8.36,PE,1686618853
207,tsiombe,-25.3,45.4833,290.59,97,13,2.26,MG,1686619224
208,macclenny,30.2822,-82.1221,302.38,78,88,0.45,US,1686619185
209,petropavlovsk-kamchatsky,53.0452,158.6483,294.48,37,0,2.0,RU,1686618781
210,xinyuan,37.3,99.0,281.52,56,100,1.63,CN,1686619226
211,hirara,24.8,125.2833,301.3,94,75,7.2,JP,1686619227
212,usinsk,65.9939,57.5281,279.71,91,100,6.25,RU,1686618795
213,barranca,-10.75,-77.7667,293.16,81,24,6.19,PE,1686619227
214,isafjordur,66.0755,-23.124,281.28,79,7,3.43,IS,1686618770
215,levuka,50.1834,-105.4011,301.0,24,75,2.57,CA,1686619228
216,mhamid,29.82,-5.72,300.93,19,0,3.02,MA,1686618845
217,arno,60.1167,18.6333,284.7,65,18,4.07,SE,1686619229
218,puerto baquerizo moreno,-0.9,-89.6,299.17,81,24,5.45,EC,1686619229
219,toliara,-23.35,43.6667,291.8,84,3,2.47,MG,1686619230
220,buka,40.8108,69.1986,299.65,37,100,1.16,UZ,1686619230
221,kupang,-10.1667,123.5833,301.47,61,20,7.72,ID,1686619230
222,vilyuchinsk,52.9306,158.4028,295.3,47,0,1.97,RU,1686618762
223,northam,51.0333,-4.2167,288.52,97,22,0.59,GB,1686619230
224,tsengel,49.4783,100.8894,292.22,63,96,3.23,MN,1686619231
225,dudinka,69.4058,86.1778,280.72,69,93,2.73,RU,1686618700
226,serenje,-13.2325,30.2352,286.16,61,80,1.59,ZM,1686619231
227,elkhart,41.5823,-85.8344,289.14,54,0,2.06,US,1686618937
228,sanming,26.2486,117.6186,299.49,80,100,0.62,CN,1686619231
229,muyuka,4.2898,9.4103,297.93,94,100,0.86,CM,1686619232
230,new norfolk,-42.7826,147.0587,284.77,76,82,1.44,AU,1686618761
231,lillehammer,61.1146,10.4674,286.78,75,87,2.08,NO,1686619232
232,oriximina,-1.7656,-55.8661,298.01,90,15,1.68,BR,1686619232
233,tidjikja,18.5564,-11.4271,304.89,18,94,5.34,MR,1686619233
234,vorgashor,67.5833,63.95,279.02,60,99,4.59,RU,1686618765
235,iskateley,67.6803,53.1512,280.83,78,38,4.17,RU,1686618764
236,vila velha,-20.3297,-40.2925,297.12,88,40,4.12,BR,1686618830
237,port hedland,-20.3167,118.5667,296.18,25,75,7.72,AU,1686619234
238,kudahuvadhoo,2.6708,72.8944,301.77,76,89,6.03,MV,1686619235
239,mejit,10.2753,170.8646,301.07,80,58,8.55,MH,1686618836
240,borogontsy,62.6683,131.1683,283.01,52,100,1.93,RU,1686619235
241,jamestown,42.097,-79.2353,286.92,81,100,4.63,US,1686618749
242,usogorsk,63.4106,48.6872,285.41,84,100,3.51,RU,1686619236
243,la ronge,55.1001,-105.2842,293.29,45,100,3.09,CA,1686619236
244,akureyri,65.6835,-18.0878,281.11,81,0,2.57,IS,1686618870
245,crane,31.3974,-102.3501,309.49,10,0,6.63,US,1686618822
246,margate,51.3813,1.3862,289.09,77,1,2.24,GB,1686619039
247,lazaro cardenas,17.9583,-102.2,301.67,69,1,4.54,MX,1686619237
248,sola,-13.8833,167.55,299.98,76,20,7.6,VU,1686618809
249,burlington,39.8835,-74.6413,295.07,96,100,3.6,US,1686619237
250,kingscliff,-28.2667,153.5667,295.78,64,75,3.09,AU,1686619238
251,midvagur,62.0511,-7.1939,279.61,87,100,0.51,FO,1686618866
252,kikwit,-5.041,18.8162,294.85,94,84,0.64,CD,1686619238
253,hawaiian paradise park,19.5933,-154.9731,301.88,66,40,2.57,US,1686618765
254,tympaki,35.0729,24.7685,293.13,83,4,0.45,GR,1686619239
255,pionerskiy,54.9508,20.2275,285.23,60,91,3.61,RU,1686619239
256,itamaraca,-7.7478,-34.8256,299.18,85,21,5.51,BR,1686619239
257,chonchi,-42.6128,-73.8092,277.71,95,11,0.96,CL,1686618793
258,lorengau,-2.0226,147.2712,302.83,73,45,4.75,PG,1686618830
259,djambala,-2.5447,14.7533,293.33,92,64,1.24,CG,1686619240
260,kongolo,-5.3833,27.0,296.33,64,51,1.16,CD,1686619240
261,lubang,13.8584,120.124,302.15,78,50,8.87,PH,1686619240
262,prainha,-1.8,-53.48,296.52,97,6,1.31,BR,1686619241
263,utrik,11.2278,169.8474,300.87,81,22,8.19,MH,1686618755
264,castillos,-34.1667,-53.8333,281.85,73,94,3.12,UY,1686618754
265,quimili,-27.6333,-62.4167,282.46,33,100,3.3,AR,1686619241
266,mohammedia,33.7066,-7.3944,296.22,100,75,1.03,MA,1686619241
267,farkhor,37.4922,69.4036,298.55,41,60,1.5,TJ,1686619242
268,ciudad dario,12.7314,-86.124,298.2,87,63,1.77,NI,1686619242
269,jeddah,21.5169,39.2192,302.07,51,0,2.06,SA,1686619201
270,ar rahad,12.7167,30.65,302.86,51,93,3.48,SD,1686619242
271,matoury,4.8483,-52.3317,298.13,100,0,1.03,GF,1686618803
272,qaqortoq,60.7167,-46.0333,279.72,75,100,3.44,GL,1686618772
273,conduaga,8.862,117.4893,303.01,66,100,1.07,PH,1686619243
274,ironwood,46.4547,-90.171,284.34,100,40,1.54,US,1686619243
275,ancud,-41.8697,-73.8203,278.13,89,16,2.45,CL,1686619243
276,ormara,25.2088,64.6357,304.02,64,26,2.0,PK,1686619244
277,pangai,-19.8,-174.35,297.21,83,75,3.09,TO,1686618836
278,west bay,19.3667,-81.4167,302.59,78,20,4.63,KY,1686619244
279,fort mcmurray,56.7268,-111.381,293.92,49,0,1.03,CA,1686618828
280,namibe,-15.1961,12.1522,289.3,79,4,1.54,AO,1686618872
281,ifanadiana,-21.3,47.6333,287.92,80,4,1.86,MG,1686619244
282,acapulco de juarez,16.8634,-99.8901,304.05,74,40,3.09,MX,1686619245
283,tarawa,1.419,172.984,303.2,79,40,2.57,KI,1686619291
284,zelenogorskiy,55.0333,87.0,284.8,98,100,0.55,RU,1686619291
285,hailar,49.2,119.7,298.73,37,94,2.94,CN,1686619292
286,manta,-0.95,-80.7333,299.82,89,75,8.05,EC,1686619292
287,queenstown,-31.8976,26.8753,280.7,59,43,6.67,ZA,1686618882
288,nchelenge,-9.3451,28.734,292.27,60,42,2.45,ZM,1686619292
289,camacupa,-12.0167,17.4833,286.66,46,29,1.8,AO,1686619292
290,east london,-33.0153,27.9116,287.7,59,78,5.98,ZA,1686618769
291,nagqu,31.5,92.0,280.07,69,100,2.95,CN,1686619293
292,fale old settlement,-9.3852,-171.2468,301.64,77,8,6.44,TK,1686618801
293,bandarban,22.1965,92.2262,300.99,89,100,1.0,BD,1686619293
294,chibougamau,49.9168,-74.3659,292.94,56,0,3.09,CA,1686618821
295,greenville,35.6127,-77.3663,296.24,97,75,0.45,US,1686619294
296,san rafael del yuma,18.4299,-68.6739,301.91,83,4,3.54,DO,1686619294
297,san luis,-33.295,-66.3356,277.2,36,0,3.13,AR,1686619164
298,portland,45.5234,-122.6762,306.02,41,20,5.66,US,1686618526
299,acarau,-2.8856,-40.12,298.68,84,0,5.61,BR,1686618799
300,kushva,58.2906,59.7592,278.96,67,0,2.46,RU,1686619295
301,cam ranh,11.9214,109.1591,305.13,55,20,0.51,VN,1686619295
302,hamilton,39.1834,-84.5333,290.84,60,75,4.12,US,1686618665
303,puerto lempira,15.2667,-83.7667,301.02,81,42,4.47,HN,1686618798
304,leninskoye,41.7589,69.3864,299.36,33,100,1.89,KZ,1686619296
305,mahina,-17.5065,-149.489,301.02,65,40,4.63,PF,1686619296
306,diego de almagro,-26.3667,-70.05,280.59,82,0,0.85,CL,1686619296
307,whakatane,-37.9585,176.9854,290.31,58,2,3.58,NZ,1686618777
308,tiksi,71.6872,128.8694,274.85,97,100,2.43,RU,1686618476
309,petlawad,23.0,74.8,301.24,62,0,5.68,IN,1686619156
310,olinda,-8.0089,-34.8553,299.0,89,75,3.09,BR,1686619205
311,touros,-5.1989,-35.4608,297.59,88,2,4.56,BR,1686619150
312,copala,16.65,-98.9833,302.33,70,97,3.18,MX,1686618812
313,zabol,32.25,67.25,294.69,17,0,1.35,AF,1686619297
314,fort st. john,56.2499,-120.8529,296.09,35,75,5.14,CA,1686619080
315,sisimiut,66.9395,-53.6735,272.92,85,13,3.18,GL,1686619299
316,frontera,26.9333,-101.45,311.98,34,0,1.34,MX,1686619299
317,yefremov,53.1481,38.0992,283.82,69,99,6.5,RU,1686619299
318,bulungu,-4.55,18.6,294.58,95,93,1.1,CD,1686619299
319,laurentides,46.4334,-74.9826,295.21,64,100,3.91,CA,1686619300
320,owando,-0.4819,15.8999,295.24,95,100,1.32,CG,1686619300
321,seven pagodas,12.6264,80.1722,303.18,66,100,4.22,IN,1686619300
322,sesheke,-17.4759,24.2968,286.88,35,10,2.54,ZM,1686619301
323,ouani,-12.1322,44.4258,297.73,74,13,1.81,KM,1686619301
324,dhidhdhoo,6.8833,73.1,302.03,79,100,8.17,MV,1686618803
325,mushie,-3.0167,16.9,295.24,95,96,1.37,CD,1686619301
326,peace river,56.2501,-117.286,298.32,41,100,3.6,CA,1686618810
327,eravur town,7.7782,81.6038,300.55,76,100,1.38,LK,1686619302
328,manistee,44.2445,-86.3242,286.16,82,98,0.63,US,1686619302
329,kenai,60.5544,-151.2583,283.79,72,100,2.06,US,1686618820
330,horsham,51.064,-0.3272,290.82,88,0,1.54,GB,1686619302
331,weno,7.4515,151.8468,304.12,74,75,6.69,FM,1686618854
332,maitum,6.0392,124.4986,302.78,68,9,1.16,PH,1686619303
333,maragogi,-9.0122,-35.2225,297.86,86,22,4.72,BR,1686619029
334,djibouti,11.5,42.5,304.26,33,100,2.06,DJ,1686619303
335,lodja,-3.4833,23.4333,294.09,89,12,0.82,CD,1686619303
336,mandal,25.45,74.5667,303.04,50,4,4.58,IN,1686619304
337,santiago de cuba,20.0247,-75.8219,298.21,91,9,0.73,CU,1686619304
338,bar-sur-aube,48.25,4.5833,290.34,67,9,2.89,FR,1686619304
339,dazhou,31.2159,107.5009,297.51,72,24,0.75,CN,1686619304
340,san-pedro,4.7485,-6.6363,298.46,78,100,3.31,CI,1686619305
341,letlhakane,-21.4167,25.5833,285.31,41,79,7.56,BW,1686619305
342,tinaan,11.2667,123.75,301.75,76,100,3.16,PH,1686619305
343,hayrabolu,41.2131,27.1069,287.01,96,15,2.07,TR,1686619305
344,arkhangel'sk,64.5401,40.5433,287.53,55,89,4.49,RU,1686619305
345,lappeenranta,61.0587,28.1887,282.47,76,0,3.09,FI,1686619306
346,noumea,-22.2763,166.4572,298.14,99,0,5.23,NC,1686619042
347,nyagan,62.1406,65.3936,280.57,53,10,1.42,RU,1686619306
348,dzuunharaa,48.8523,106.4579,298.49,31,100,3.89,MN,1686619306
349,berezovo,63.9381,65.0419,279.65,55,23,3.02,RU,1686619307
350,soio,-6.1349,12.3689,295.86,90,11,3.0,AO,1686619307
351,brisas de zicatela,15.8369,-97.0419,304.44,66,20,2.57,MX,1686618814
352,anadyr,64.75,177.4833,289.43,51,0,4.0,RU,1686618746
353,arenapolis,-14.4503,-56.8461,292.35,91,98,3.02,BR,1686619308
354,altai,46.3722,96.2583,286.33,55,61,1.86,MN,1686619308
355,fort bragg,35.139,-79.006,297.23,88,100,2.57,US,1686618791
356,sadovoye,47.7764,44.5089,291.8,67,100,5.3,RU,1686619309
357,okhotsk,59.3833,143.3,281.61,85,84,5.02,RU,1686618846
358,yauya,-8.9833,-77.3,283.93,75,47,2.31,PE,1686619072
359,piti village,13.4626,144.6933,303.88,80,40,7.2,GU,1686619309
360,gamay,12.3854,125.2979,304.16,62,100,2.26,PH,1686619310
361,sinan,34.8262,126.1086,297.21,76,100,2.6,KR,1686619310
362,moose jaw,50.4001,-105.5344,301.3,20,75,3.09,CA,1686618816
363,malango,-2.9627,119.9001,297.9,76,37,1.03,ID,1686618769
364,cestos city,5.46,-9.5828,298.77,80,31,4.03,LR,1686619223
365,rio grande,-32.035,-52.0986,277.21,63,5,4.09,BR,1686619312
366,guerrero negro,27.9769,-114.0611,291.88,68,0,9.33,MX,1686618807
367,saint-philippe,-21.3585,55.7679,294.92,76,0,2.41,RE,1686618771
368,pitanga,-24.7572,-51.7614,286.66,99,100,2.01,BR,1686619313
369,antsiranana,-12.2787,49.2917,294.76,88,2,3.76,MG,1686619313
370,kaohsiung,22.6163,120.3133,303.2,90,75,2.06,TW,1686619313
371,umba,66.6871,34.3429,284.48,62,83,5.74,RU,1686619313
372,aginskoye,51.1,114.53,299.98,35,36,2.62,RU,1686619313
373,lowestoft,52.4752,1.7516,286.71,92,5,4.97,GB,1686619314
374,myingyan,21.4667,95.3833,302.42,65,73,6.42,MM,1686618826
375,bangassou,4.7413,22.8184,293.44,98,100,0.92,CF,1686619314
376,salalah,17.0151,54.0924,302.2,89,75,1.03,OM,1686619314
377,machico,32.7,-16.7667,292.99,83,20,1.54,PT,1686619314
378,neftcala,39.3742,49.2472,296.78,81,4,2.8,AZ,1686619315
379,severodvinsk,64.5635,39.8302,287.04,57,100,6.55,RU,1686619315
380,jinchang,38.4953,102.1739,296.75,19,0,2.18,CN,1686618882
381,jwaneng,-24.6004,24.7303,278.95,76,0,3.78,BW,1686619317
382,larache,35.1932,-6.1557,293.35,87,88,2.82,MA,1686619317
383,hasaki,35.7333,140.8333,295.37,90,96,7.18,JP,1686618770
384,tual,-5.6667,132.75,299.89,83,100,9.55,ID,1686619318
385,pathein,16.7833,94.7333,298.19,97,100,4.54,MM,1686619318
386,mount gambier,-37.8333,140.7667,284.69,83,100,4.12,AU,1686618799
387,ugoofaaru,5.6667,73.0,301.9,77,100,7.63,MV,1686618802
388,nyahururu,0.0421,36.3673,284.16,86,24,1.04,KE,1686619319
389,fauske,67.2588,15.3918,281.36,94,100,3.74,NO,1686619319
390,rosarno,38.4841,15.979,295.13,91,33,1.29,IT,1686619319
391,huarmey,-10.0681,-78.1522,294.46,80,6,6.16,PE,1686618986
392,wynyard,-41.0,145.7167,284.81,92,100,4.88,AU,1686618839
393,mar del plata,-38.0023,-57.5575,280.42,91,40,2.06,AR,1686619239
394,brokopondo,4.75,-55.1667,298.44,87,100,3.72,SR,1686619320
395,tarfaya,27.9358,-12.9218,294.93,85,1,6.11,MA,1686619321
396,qui nhon,13.7667,109.2333,302.3,68,100,2.54,VN,1686618807
397,alesund,62.4723,6.1549,288.65,82,100,2.06,NO,1686619322
398,wenzhou,27.9994,120.6668,300.28,73,89,1.32,CN,1686619323
399,kailua-kona,19.6406,-155.9956,302.13,81,40,4.63,US,1686618775
400,san antonio de pale,-1.4014,5.6325,297.5,89,100,3.4,GQ,1686618877
401,vila do maio,15.1333,-23.2167,298.59,88,96,7.21,CV,1686619324
402,mutare,-18.9707,32.6709,286.74,42,4,1.68,ZW,1686619324
403,sinjai,-5.1241,120.253,300.63,74,100,1.79,ID,1686619324
404,motueka,-41.1333,173.0167,286.54,56,0,0.64,NZ,1686619324
405,vuktyl,63.8567,57.3094,282.04,82,100,2.96,RU,1686619325
406,st. john's,47.5649,-52.7093,280.75,93,100,9.26,CA,1686618761
407,malabar,-33.9667,151.25,291.99,65,0,5.66,AU,1686619325
408,pangody,65.85,74.4859,275.76,73,6,7.27,RU,1686619325
409,korla,41.7597,86.1469,303.83,21,97,5.99,CN,1686618779
410,adam,22.3756,57.5233,304.68,44,100,3.43,OM,1686619327
411,fortuna,40.5982,-124.1573,288.34,92,75,6.69,US,1686618840
412,papao,-17.75,-149.55,300.97,67,4,8.82,PF,1686618763
413,yzeure,46.5644,3.355,287.41,97,85,1.06,FR,1686619329
414,holualoa,19.6228,-155.9522,300.06,81,40,4.63,US,1686618724
415,riohacha,11.5444,-72.9072,302.0,69,98,8.16,CO,1686619329
416,takoradi,4.8845,-1.7554,297.92,72,50,2.94,GH,1686619330
417,chibuto,-24.6867,33.5306,292.32,54,81,2.91,MZ,1686619331
418,karungdong,5.8844,121.263,303.0,67,24,2.59,PH,1686619331
419,george town,5.4112,100.3354,303.12,73,20,3.6,MY,1686619331
420,aljezur,37.3191,-8.8033,290.85,87,75,5.09,PT,1686618829
421,griffith,41.5284,-87.4237,293.11,55,75,2.06,US,1686618772
422,saldanha,-33.0117,17.9442,287.87,81,100,7.51,ZA,1686618848
423,ulysses,37.5814,-101.3552,291.68,79,73,6.36,US,1686619332
424,boguchar,49.9358,40.545,283.67,91,100,4.56,RU,1686619333
425,acajutla,13.5928,-89.8275,301.36,83,100,2.07,SV,1686619333
426,bam,29.106,58.357,302.99,20,1,5.34,IR,1686619333
427,la passe,45.5549,-0.8967,291.47,91,100,2.43,FR,1686618772
428,yanchep,-31.55,115.6833,288.49,69,84,3.14,AU,1686619333
429,clearwater,27.9659,-82.8001,301.54,77,0,4.12,US,1686619212
430,medina,24.4686,39.6142,302.39,21,0,1.54,SA,1686619334
431,harsin,34.2721,47.5861,286.6,39,0,0.33,IR,1686619334
432,ghat,24.9647,10.1728,303.88,17,3,1.48,LY,1686619334
433,yuzhno-kurilsk,44.0306,145.8556,284.89,97,100,4.02,RU,1686618802
434,pariaman,-0.619,100.12,300.18,79,22,1.05,ID,1686619335
435,praya,14.9215,-23.5087,298.45,73,0,4.63,CV,1686618850
436,mitu,1.1983,-70.1733,297.21,92,99,0.07,CO,1686619335
437,talara,-4.5772,-81.2719,297.57,78,0,7.2,PE,1686619335
438,bandar abbas,27.1865,56.2808,302.14,74,90,2.06,IR,1686619335
439,uliastay,47.7417,96.8444,288.68,58,100,1.23,MN,1686619337
440,nava,28.4167,-100.7667,308.93,38,100,3.51,MX,1686619337
441,shankargarh,25.1833,81.6167,310.7,26,13,4.3,IN,1686619337
442,mambajao,9.2504,124.7156,302.68,71,99,0.7,PH,1686619337
443,howrah,22.5892,88.3103,302.15,89,40,2.06,IN,1686619338
444,teonthar,24.9833,81.65,310.61,26,31,3.05,IN,1686619338
445,ouro preto do oeste,-10.7481,-62.2158,295.87,94,69,1.05,BR,1686619338
446,boyolangu,-8.1181,111.8935,298.93,83,97,3.55,ID,1686619338
447,libreville,0.3925,9.4537,299.16,89,20,2.06,GA,1686619339
448,kirensk,57.7853,108.1119,286.28,40,100,5.99,RU,1686618823
449,sarkisla,39.3519,36.4098,285.49,93,17,0.57,TR,1686619339
450,citrus springs,28.9975,-82.4707,300.87,80,0,0.0,US,1686619296
451,nova vicosa,-17.8919,-39.3719,295.59,85,0,3.5,BR,1686619340
452,tocopilla,-22.092,-70.1979,289.45,74,33,4.19,CL,1686619340
453,bengkulu,-3.8004,102.2655,299.1,76,24,1.03,ID,1686619341
454,uturoa,-16.7333,-151.4333,300.45,69,9,7.28,PF,1686618860
455,kununurra,-15.7667,128.7333,300.14,50,43,2.06,AU,1686618796
456,mugia,43.1041,-9.2179,290.46,94,100,2.59,ES,1686619343
457,colonia,50.9333,6.95,293.07,49,0,3.09,DE,1686618766
458,afaahiti,-17.75,-149.2833,300.08,67,18,8.4,PF,1686618767
459,klyuchi,52.2667,79.1667,289.56,75,17,4.38,RU,1686618752
460,iringa,-7.7667,35.7,284.22,94,36,1.79,TZ,1686619345
461,la foa,-21.7108,165.8276,296.8,51,7,1.38,NC,1686619345
462,kani keli,-12.9536,45.1033,295.74,66,0,2.34,YT,1686619345
463,saguenay,48.4168,-71.0657,294.86,56,20,2.06,CA,1686619262
464,oranjemund,-28.55,16.4333,285.62,83,0,1.06,NA,1686619346
465,kushiro,42.975,144.3747,286.68,100,75,2.06,JP,1686619347
466,kavieng,-2.5744,150.7967,301.79,78,69,5.31,PG,1686619349
467,al fujairah city,25.1164,56.3414,304.22,70,100,2.57,AE,1686619349
468,ouadda,8.0777,22.4007,293.7,99,100,1.31,CF,1686619349
469,kolonia,50.9333,6.95,293.12,49,0,3.09,DE,1686619308
470,barreirinhas,-2.7469,-42.8264,298.3,89,44,3.94,BR,1686619349
471,nizhniy odes,63.6445,54.856,284.3,83,100,3.07,RU,1686619350
472,cidade velha,14.9167,-23.6167,298.41,73,0,4.63,CV,1686619350
473,port alfred,-33.5906,26.891,284.36,81,100,0.89,ZA,1686618774
474,timbuktu,16.7735,-3.0074,303.29,47,52,3.46,ML,1686619352
475,krasnogorskoye,52.2953,86.1979,288.13,71,30,1.84,RU,1686619352
476,zabaykal'sk,49.6333,117.3167,302.04,24,92,4.26,RU,1686619352
477,nizhneudinsk,54.9076,99.0276,283.06,97,100,2.1,RU,1686619352
478,chegdomyn,51.1167,133.0167,295.96,50,24,1.54,RU,1686619352
479,howard springs,-12.497,131.047,301.94,34,100,4.5,AU,1686619353
480,hobyo,5.3505,48.5268,298.77,86,95,10.58,SO,1686619353
481,uzgen,40.7699,73.3007,291.31,73,94,2.05,KG,1686619354
482,puerto deseado,-47.7503,-65.8938,277.23,64,100,4.67,AR,1686619286
483,yaren,-0.5472,166.916,301.59,75,98,3.91,NR,1686619355
484,alaior,39.9303,4.1404,294.01,94,20,3.09,ES,1686619183
485,temiskaming shores,47.4938,-79.7153,289.04,98,100,4.15,CA,1686619356
486,aoulef,26.9667,1.0833,306.73,10,0,4.42,DZ,1686618807
487,ambasa,23.9172,91.8472,299.11,93,100,2.06,IN,1686619356
488,graaff-reinet,-32.2522,24.5308,279.22,73,98,2.87,ZA,1686619356
489,tanjung pandan,-2.75,107.65,300.75,84,100,4.11,ID,1686619356
490,fukuecho,32.6881,128.8419,296.35,88,75,1.03,JP,1686619357
491,areia,-6.9633,-35.6917,293.92,96,0,2.66,BR,1686619357
492,nampula,-15.1165,39.2666,288.05,95,0,1.06,MZ,1686619357
493,ishigaki,24.3448,124.1572,299.4,89,100,8.35,JP,1686618505
494,praia,14.9215,-23.5087,298.45,73,0,4.63,CV,1686619357
495,myeik,12.4333,98.6,299.85,87,100,3.71,MM,1686618494
496,marsabit,2.3284,37.9899,289.47,75,95,6.72,KE,1686619358
497,bubaque,11.2833,-15.8333,299.03,87,100,4.4,GW,1686619358
498,itaporanga,-7.3044,-38.1503,296.04,72,2,1.86,BR,1686619358
499,kargasok,59.0556,80.8572,282.25,57,14,5.02,RU,1686618777
500,sweetwater,25.7634,-80.3731,300.93,83,100,4.12,US,1686619360
501,kalmunai,7.4167,81.8167,299.93,80,88,2.44,LK,1686618863
502,ar rutbah,33.0381,40.2848,296.22,41,0,4.6,IQ,1686619360
503,san angelo,31.4638,-100.437,305.27,62,0,8.23,US,1686619134
504,hilo,19.7297,-155.09,302.0,61,40,2.57,US,1686619361
505,nyazepetrovsk,56.0531,59.6028,277.62,69,0,1.18,RU,1686619361
506,cooma,-36.2333,149.1333,284.03,60,100,3.25,AU,1686618768
507,gharavuti,37.5672,68.4469,301.51,33,74,1.83,TJ,1686619361
508,portrush,55.1959,-6.6493,286.93,93,76,1.74,GB,1686619363
509,outokumpu,62.7269,29.0159,286.09,65,100,2.58,FI,1686619363
510,kayyerkan,69.3786,87.7439,280.54,100,93,3.23,RU,1686619144
511,port lavaca,28.615,-96.6261,302.76,82,0,7.2,US,1686619363
512,mao,39.8885,4.2658,294.46,94,20,3.09,ES,1686619364
513,carbonear,47.7332,-53.2148,281.01,91,100,7.38,CA,1686619365
514,ikang,4.7898,8.5316,296.7,96,100,0.9,NG,1686619335
515,komatipoort,-25.4332,31.9548,290.96,65,6,0.94,ZA,1686619365
516,jiwani,25.05,61.7417,302.67,73,100,1.96,PK,1686619366
517,serdar,38.9764,56.2757,300.81,18,0,1.35,TM,1686619366
518,itaituba,-4.2761,-55.9836,299.34,80,85,0.91,BR,1686619366
519,ulaangom,49.9811,92.0667,289.92,40,0,3.24,MN,1686619366
520,barcelos,41.5388,-8.6151,292.55,84,91,0.9,PT,1686619367
521,annau,37.8876,58.516,296.87,35,0,1.03,TM,1686619367
522,waltham,42.3765,-71.2356,295.36,81,100,5.14,US,1686619367
523,laguna,38.421,-121.4238,300.42,51,0,3.6,US,1686618823
524,molochnoye,59.2917,39.6787,281.77,78,6,2.35,RU,1686619367
525,colonia menno,-22.3667,-59.8167,284.45,42,100,6.63,PY,1686619368
526,winston,28.0317,-82.0148,302.16,75,0,2.57,US,1686619368
527,palikir - national government center,6.9248,158.1611,304.56,66,100,5.14,FM,1686619368
528,taksimo,56.3444,114.8794,287.57,47,30,1.67,RU,1686619368
529,tongren,27.7172,109.1853,296.67,82,61,0.21,CN,1686619369
530,kamiiso,41.8167,140.65,290.36,94,75,3.6,JP,1686619369
531,pemangkat,1.1667,108.9667,301.14,76,57,2.0,ID,1686618800
532,changuinola,9.4333,-82.5167,299.2,84,100,0.45,PA,1686619369
533,trincomalee,8.5711,81.2335,301.03,78,100,8.48,LK,1686619369
534,tangalle,6.024,80.7911,299.73,84,100,5.44,LK,1686619370
535,mir bachah kot,34.75,69.119,293.37,50,1,1.13,AF,1686619370
536,pindi gheb,33.2402,72.2661,306.0,34,0,3.52,PK,1686619370
537,cannonvale,-20.2833,148.7,295.81,73,9,4.4,AU,1686619370
538,port saint john's,-31.6229,29.5448,288.12,75,82,2.04,ZA,1686618772
539,zhaoyuan,37.3592,120.3964,297.16,44,0,4.04,CN,1686619371
540,eilat,29.5581,34.9482,300.06,44,0,2.57,IL,1686619371
541,zheleznogorsk,52.331,35.3711,284.66,67,100,5.63,RU,1686619371
542,kuqa,41.7278,82.9364,302.32,22,79,2.76,CN,1686619371
543,villa ojo de agua,-29.5,-63.6938,281.91,38,100,2.74,AR,1686618829
544,moorhead,46.8739,-96.7676,300.13,36,0,2.06,US,1686619325
545,kingston,17.997,-76.7936,301.62,70,5,0.89,JM,1686618638
546,cockburn town,21.4612,-71.1419,301.18,84,10,9.54,TC,1686618858
547,portage la prairie,49.9728,-98.2926,300.33,38,40,2.06,CA,1686619372
548,ibirapitanga,-14.1642,-39.3736,292.9,99,24,0.21,BR,1686619372
549,chilaw,7.5758,79.7953,301.09,80,100,7.39,LK,1686619372
550,pasni,25.2631,63.471,302.87,70,100,2.37,PK,1686619373
551,takab,36.4009,47.1133,289.12,43,5,1.01,IR,1686619373
552,tosham,28.8833,75.9167,307.81,35,0,6.4,IN,1686619373
553,saurimo,-9.6608,20.3916,289.44,41,20,1.62,AO,1686619373
554,nimaparha,20.0667,86.0167,300.37,64,86,1.93,IN,1686619373
555,burutu,5.3509,5.5076,298.3,86,100,1.58,NG,1686619374
556,blythe,33.6103,-114.5964,305.4,22,0,7.72,US,1686619374
557,yuci,37.6803,112.7319,296.01,33,0,1.0,CN,1686619374
558,zhangjiakou,40.81,114.8794,295.7,37,20,3.44,CN,1686619375
559,jutai,-5.1833,-68.9,296.42,97,21,0.24,BR,1686619375
560,ingeniero guillermo n. juarez,-23.9,-61.85,283.11,39,100,4.77,AR,1686618824
561,aluksne,57.4167,27.05,281.51,75,5,2.23,LV,1686619375
562,lao cai,22.4833,103.95,299.68,94,99,0.09,VN,1686619376
563,troitsko-pechorsk,62.7084,56.1964,284.11,76,99,3.14,RU,1686618858
564,goth radhan,27.1833,67.95,306.8,44,29,6.76,PK,1686619377
565,kodinsk,58.6881,99.1844,288.56,48,100,3.0,RU,1686618862
566,xining,36.6167,101.7667,287.49,58,9,0.79,CN,1686619377
567,slave lake,55.2834,-114.769,298.14,41,75,4.63,CA,1686619377
568,khash,28.2211,61.2158,298.66,19,9,2.09,IR,1686619377
569,aleg,17.0481,-13.9209,307.61,14,56,4.26,MR,1686619378
